[
  {
    "fsq_id": "5cab4c1ce65d0c002c3ec76d",
    "categories": [
      {
        "id": 13035,
        "name": "Coffee Shop",
        "icon": {
          "prefix": "https://ss3.4sqi.net/img/categories_v2/food/coffeeshop_",
          "suffix": ".png"
        }
      },
      {
        "id": 13065,
        "name": "Restaurant",
        "icon": {
          "prefix": "https://ss3.4sqi.net/img/categories_v2/food/default_",
          "suffix": ".png"
        }
      }
    ],
    "chains": [],
    "distance": 631,
    "geocodes": {
      "main": {
        "latitude": 43.095396,
        "longitude": -89.51183
      },
      "roof": {
        "latitude": 43.095396,
        "longitude": -89.51183
      }
    },
    "link": "/v3/places/5cab4c1ce65d0c002c3ec76d",
    "location": {
      "address": "1824 Parmenter St",
      "census_block": "550250110001023",
      "country": "US",
      "cross_street": "Hubbard Ave",
      "dma": "Madison",
      "formatted_address": "1824 Parmenter St (Hubbard Ave), Middleton, WI 53562",
      "locality": "Middleton",
      "neighborhood": ["Far West Side"],
      "postcode": "53562",
      "region": "WI"
    },
    "name": "Helbachs Coffee Roasters + Kitchen",
    "related_places": {},
    "timezone": "America/Chicago"
  },
  {
    "fsq_id": "5fb023a0d415002aca876aa9",
    "categories": [
      {
        "id": 13003,
        "name": "Bar",
        "icon": {
          "prefix": "https://ss3.4sqi.net/img/categories_v2/nightlife/pub_",
          "suffix": ".png"
        }
      },
      {
        "id": 13035,
        "name": "Coffee Shop",
        "icon": {
          "prefix": "https://ss3.4sqi.net/img/categories_v2/food/coffeeshop_",
          "suffix": ".png"
        }
      },
      {
        "id": 13065,
        "name": "Restaurant",
        "icon": {
          "prefix": "https://ss3.4sqi.net/img/categories_v2/food/default_",
          "suffix": ".png"
        }
      }
    ],
    "chains": [],
    "distance": 641,
    "geocodes": {
      "main": {
        "latitude": 43.095492,
        "longitude": -89.51173
      }
    },
    "link": "/v3/places/5fb023a0d415002aca876aa9",
    "location": {
      "address": "1824 Parmenter St",
      "census_block": "550250110001011",
      "country": "US",
      "cross_street": "Hubbard Ave",
      "dma": "Madison",
      "formatted_address": "1824 Parmenter St (Hubbard Ave), Middleton, WI 53562",
      "locality": "Middleton",
      "neighborhood": ["Far West Side"],
      "postcode": "53562",
      "region": "WI"
    },
    "name": "Grace Coffee Co.",
    "related_places": {},
    "timezone": "America/Chicago"
  },
  {
    "fsq_id": "4b424b2cf964a520e3d025e3",
    "categories": [
      {
        "id": 13025,
        "name": "Wine Bar",
        "icon": {
          "prefix": "https://ss3.4sqi.net/img/categories_v2/food/winery_",
          "suffix": ".png"
        }
      },
      {
        "id": 13035,
        "name": "Coffee Shop",
        "icon": {
          "prefix": "https://ss3.4sqi.net/img/categories_v2/food/coffeeshop_",
          "suffix": ".png"
        }
      },
      {
        "id": 13145,
        "name": "Fast Food Restaurant",
        "icon": {
          "prefix": "https://ss3.4sqi.net/img/categories_v2/food/fastfood_",
          "suffix": ".png"
        }
      }
    ],
    "chains": [],
    "distance": 788,
    "geocodes": {
      "main": {
        "latitude": 43.096111,
        "longitude": -89.513686
      },
      "roof": {
        "latitude": 43.096111,
        "longitude": -89.513686
      }
    },
    "link": "/v3/places/4b424b2cf964a520e3d025e3",
    "location": {
      "address": "1901 Cayuga St",
      "address_extended": "Ste 101",
      "census_block": "550250110001006",
      "country": "US",
      "cross_street": "at Elmwood Ave.",
      "dma": "Madison",
      "formatted_address": "1901 Cayuga St (at Elmwood Ave.), Middleton, WI 53562",
      "locality": "Middleton",
      "neighborhood": ["Far West Side"],
      "postcode": "53562",
      "region": "WI"
    },
    "name": "Barriques",
    "related_places": {},
    "timezone": "America/Chicago"
  },
  {
    "fsq_id": "57f248a2498ee915d7915412",
    "categories": [
      {
        "id": 13043,
        "name": "Donut Shop",
        "icon": {
          "prefix": "https://ss3.4sqi.net/img/categories_v2/food/donuts_",
          "suffix": ".png"
        }
      },
      {
        "id": 13068,
        "name": "American Restaurant",
        "icon": {
          "prefix": "https://ss3.4sqi.net/img/categories_v2/food/default_",
          "suffix": ".png"
        }
      }
    ],
    "chains": [],
    "distance": 1040,
    "geocodes": {
      "main": {
        "latitude": 43.105465,
        "longitude": -89.510021
      },
      "roof": {
        "latitude": 43.105465,
        "longitude": -89.510021
      }
    },
    "link": "/v3/places/57f248a2498ee915d7915412",
    "location": {
      "address": "2831 Parmenter St",
      "census_block": "550250111011003",
      "country": "US",
      "cross_street": "",
      "dma": "Madison",
      "formatted_address": "2831 Parmenter St, Middleton, WI 53562",
      "locality": "Middleton",
      "neighborhood": ["Pheasant Branch"],
      "postcode": "53562",
      "region": "WI"
    },
    "name": "Hurts Donut",
    "related_places": {},
    "timezone": "America/Chicago"
  },
  {
    "fsq_id": "5eac5ae4cadf85000862e9ed",
    "categories": [
      {
        "id": 13035,
        "name": "Coffee Shop",
        "icon": {
          "prefix": "https://ss3.4sqi.net/img/categories_v2/food/coffeeshop_",
          "suffix": ".png"
        }
      }
    ],
    "chains": [],
    "distance": 1111,
    "geocodes": {
      "main": {
        "latitude": 43.093307,
        "longitude": -89.491712
      }
    },
    "link": "/v3/places/5eac5ae4cadf85000862e9ed",
    "location": {
      "address": "6401 University Ave",
      "census_block": "550250110001018",
      "country": "US",
      "cross_street": "",
      "dma": "Madison",
      "formatted_address": "6401 University Ave, Middleton, WI 53562",
      "locality": "Middleton",
      "neighborhood": ["Pheasant Branch"],
      "postcode": "53562",
      "region": "WI"
    },
    "name": "Scotters Coffee",
    "related_places": {},
    "timezone": "America/Chicago"
  },
  {
    "fsq_id": "4b898addf964a520534032e3",
    "categories": [
      {
        "id": 13035,
        "name": "Coffee Shop",
        "icon": {
          "prefix": "https://ss3.4sqi.net/img/categories_v2/food/coffeeshop_",
          "suffix": ".png"
        }
      }
    ],
    "chains": [
      {
        "id": "ab4c54c0-d68a-012e-5619-003048cad9da",
        "name": "Starbucks"
      }
    ],
    "distance": 1172,
    "geocodes": {
      "main": {
        "latitude": 43.103501,
        "longitude": -89.486847
      },
      "roof": {
        "latitude": 43.103501,
        "longitude": -89.486847
      }
    },
    "link": "/v3/places/4b898addf964a520534032e3",
    "location": {
      "address": "2602 Allen Blvd",
      "census_block": "550250111014000",
      "country": "US",
      "dma": "Madison",
      "formatted_address": "2602 Allen Blvd, Middleton, WI 53562",
      "locality": "Middleton",
      "neighborhood": ["Pheasant Branch"],
      "postcode": "53562",
      "region": "WI"
    },
    "name": "Starbucks",
    "related_places": {},
    "timezone": "America/Chicago"
  },
  {
    "fsq_id": "4adb5042f964a520ce2521e3",
    "categories": [
      {
        "id": 13035,
        "name": "Coffee Shop",
        "icon": {
          "prefix": "https://ss3.4sqi.net/img/categories_v2/food/coffeeshop_",
          "suffix": ".png"
        }
      }
    ],
    "chains": [
      {
        "id": "ab4c54c0-d68a-012e-5619-003048cad9da",
        "name": "Starbucks"
      }
    ],
    "distance": 1771,
    "geocodes": {
      "main": {
        "latitude": 43.090554,
        "longitude": -89.525643
      },
      "roof": {
        "latitude": 43.090554,
        "longitude": -89.525643
      }
    },
    "link": "/v3/places/4adb5042f964a520ce2521e3",
    "location": {
      "address": "8238 Greenway Blvd",
      "address_extended": "Ste 102",
      "census_block": "550250109072018",
      "country": "US",
      "cross_street": "",
      "dma": "Madison",
      "formatted_address": "8238 Greenway Blvd, Middleton, WI 53562",
      "locality": "Middleton",
      "postcode": "53562",
      "region": "WI"
    },
    "name": "Starbucks",
    "related_places": {},
    "timezone": "America/Chicago"
  },
  {
    "fsq_id": "4f1721e1e4b01eeff3dac9b6",
    "categories": [
      {
        "id": 13034,
        "name": "Caf√©",
        "icon": {
          "prefix": "https://ss3.4sqi.net/img/categories_v2/food/cafe_",
          "suffix": ".png"
        }
      },
      {
        "id": 13035,
        "name": "Coffee Shop",
        "icon": {
          "prefix": "https://ss3.4sqi.net/img/categories_v2/food/coffeeshop_",
          "suffix": ".png"
        }
      },
      {
        "id": 13039,
        "name": "Deli",
        "icon": {
          "prefix": "https://ss3.4sqi.net/img/categories_v2/food/deli_",
          "suffix": ".png"
        }
      }
    ],
    "chains": [],
    "distance": 3112,
    "geocodes": {
      "main": {
        "latitude": 43.098101,
        "longitude": -89.542496
      },
      "roof": {
        "latitude": 43.098101,
        "longitude": -89.542496
      }
    },
    "link": "/v3/places/4f1721e1e4b01eeff3dac9b6",
    "location": {
      "address": "2140 W Greenview Dr",
      "address_extended": "Ste 2",
      "census_block": "550250109081033",
      "country": "US",
      "cross_street": "",
      "dma": "Madison",
      "formatted_address": "2140 W Greenview Dr, Middleton, WI 53562",
      "locality": "Middleton",
      "postcode": "53562",
      "region": "WI"
    },
    "name": "Burman Coffee Traders",
    "related_places": {},
    "timezone": "America/Chicago"
  }
]
